cluster_id,police_station,road_class,lanes,location_centroid,lat,lon,predicted_risk_index,capacity_reduction_rcf,logistics_weight,logistics_penalty_index,travel_time_before_min_km,travel_time_after_min_km,delay_savings_per_vehicle_min,total_commuter_time_saved_hours,priority_score,target_shift,enforcement_action,officers_allocated,rank,nearest_landmark
3,Upparpet,MG Road Central Commercial,3,"(12.9715, 77.5735)",12.9715,77.5735,0.6628,0.07125106048990618,3.0,0.21375318146971853,4.29209495014895,1.6577664378438661,2.634328512305084,68.05348656788134,35.9489717397914,Morning Rush (08:00 - 12:00 IST),Tow trucks + double-parking citations,3,1,"1st Cross Road, Sowrashtrapete, Chickpete, Bengaluru, Karnataka. Pin-560053 (India)"
6,Bellandur,Sarjapur Road,2,"(12.9139, 77.6789)",12.913933333333334,77.67886666666666,0.1098473783333333,0.018305243070571655,3.0,0.05491572921171496,3.0,3.0,0.0,0.0,6.95646996411433,Night/Early Morning Patrol (04:00 - 08:00 IST),Wheel clamping + lane clearance,3,2,"Sarjapura Main Road, Venkataramanappa Reddy Layout, Kaikondrahalli, Bengaluru, Karnataka. Pin-560035 (India)"
2,HSR Layout,Hosur Road NH 44,4,"(12.8980, 77.6300)",12.898,77.63,0.0945538067777777,0.008196709873268392,3.0,0.024590129619805175,1.890299202411792,1.8848862539540234,0.005412948457768518,0.3518416497549537,4.485338621980475,Night/Early Morning Patrol (04:00 - 08:00 IST),Wheel clamping + lane clearance,3,3,"7th Main Road, Hongasandra, Bengaluru, Karnataka. Pin-560068 (India)"
5,Adugodi,Koramangala Inner Ring Road,2,"(12.9349, 77.6268)",12.93493956043956,77.62677472527471,0.6394342371428572,0.10312706006115825,1.0,0.10312706006115825,4.777076474113969,1.6423599362291088,3.13471653788486,49.63301184984361,27.38171143435876,Night/Early Morning Patrol (04:00 - 08:00 IST),Wheel clamping + lane clearance,1,4,"16th Main Road, Sony World Junction, Koramangala, Bengaluru, Karnataka. Pin-560034 (India)"
4,Cubbon Park,MG Road Central Commercial,3,"(12.9705, 77.5915)",12.970499999999998,77.5915,0.572364672,0.04840231791773986,1.0,0.04840231791773986,1.5939399628734725,1.5888196473402054,0.0051203155332670836,0.08107166261006216,20.399923265518925,Night/Early Morning Patrol (04:00 - 08:00 IST),Wheel clamping + lane clearance,1,5,"Kasturba Road, Siddalingaiah Circle, Gandhi Nagar, Bengaluru, Karnataka. Pin-560001 (India)"
1,Halasur,MG Road Central Commercial,3,"(12.9744, 77.6202)",12.974375000000002,77.62023863636364,0.41280847625,0.04963368029182162,1.0,0.04963368029182162,1.5940779666694305,1.5888196473402054,0.005258319329225047,0.08325672271272992,15.695386486227115,Night/Early Morning Patrol (04:00 - 08:00 IST),Wheel clamping + lane clearance,1,6,"Murphy Road, Begum Mahal Junction, Halasuru, Bengaluru, Karnataka. Pin-560008 (India)"
0,Bellandur,Sarjapur Road,2,"(12.9191, 77.6712)",12.9191,77.6712,0.0997926975,0.0177121237987013,3.0,0.0531363713961039,3.0,3.0,0.0,0.0,6.53620568474026,Night/Early Morning Patrol (04:00 - 08:00 IST),Wheel clamping + lane clearance,0,7,"Sarjapura Main Road, Ambience Diva, Bellandur, Bengaluru, Karnataka. Pin-560103 (India)"
